[
    {
        "id": "spitzingsee",
        "name": "Spitzingsee - Tegernsee",
        "distance": 60,
        "piste_km": 20,
        "lifts": 10,
        "price": 49.50,
        "classification": "Familie",
        "website": "https://www.alpenbahnen-spitzingsee.de",
        "latitude": 47.6667,
        "longitude": 11.8833,
        "webcam": "https://www.foto-webcam.eu/webcam/spitzingsee/"
    },
    {
        "id": "brauneck",
        "name": "Brauneck / Lenggries",
        "distance": 60,
        "piste_km": 34,
        "lifts": 15,
        "price": 49.50,
        "classification": "Genuss",
        "website": "https://www.brauneck-bergbahn.de",
        "latitude": 47.6500,
        "longitude": 11.5667,
        "webcam": "https://www.foto-webcam.eu/webcam/brauneck/"
    },
    {
        "id": "garmisch",
        "name": "Garmisch-Classic",
        "distance": 75,
        "piste_km": 40,
        "lifts": 18,
        "price": 64.00,
        "classification": "Sportlich",
        "website": "https://zugspitze.de",
        "latitude": 47.4814,
        "longitude": 11.0953,
        "webcam": "https://www.foto-webcam.eu/webcam/garmisch/"
    },
    {
        "id": "sudelfeld",
        "name": "Sudelfeld - Bayrischzell",
        "distance": 75,
        "piste_km": 31,
        "lifts": 13,
        "price": 52.00,
        "classification": "Familie",
        "website": "https://www.sudelfeld.de",
        "latitude": 47.6833,
        "longitude": 12.0833,
        "webcam": "https://www.foto-webcam.eu/webcam/sudelfeld/",
        "priceDetail": {
            "adult": 52.00,
            "youth": 42.00,
            "child": 26.00,
            "currency": "€",
            "info": "Tageskarte 2024/25"
        }
    },
    {
        "id": "zugspitze",
        "name": "Zugspitze",
        "distance": 90,
        "piste_km": 20,
        "lifts": 10,
        "price": 68.00,
        "classification": "Gletscher",
        "website": "https://zugspitze.de",
        "latitude": 47.4566,
        "longitude": 10.9922,
        "address": "Am Eibsee 6, 82491 Grainau",
        "webcam": "https://www.foto-webcam.eu/webcam/zugspitze/"
    },
    {
        "id": "wilder-kaiser",
        "name": "SkiWelt Wilder Kaiser",
        "distance": 80,
        "piste_km": 270,
        "lifts": 80,
        "price": 69.00,
        "classification": "Großraum",
        "website": "https://www.skiwelt.at",
        "latitude": 47.4500,
        "longitude": 12.1833,
        "webcam": "https://www.foto-webcam.eu/webcam/ellmau/",
        "priceDetail": {
            "adult": 69.00,
            "youth": 52.00,
            "child": 34.50,
            "currency": "€",
            "info": "Tageskarte Hauptsaison"
        }
    },
    {
        "id": "hochkoessen",
        "name": "Hochkössen",
        "distance": 80,
        "piste_km": 22,
        "lifts": 11,
        "price": 52.00,
        "classification": "Familie",
        "website": "https://www.bergbahnen-koessen.at",
        "latitude": 47.6500,
        "longitude": 12.4167
    },
    {
        "id": "winklmoos",
        "name": "Reit im Winkl (Winklmoos)",
        "distance": 90,
        "piste_km": 44,
        "lifts": 12,
        "price": 54.50,
        "classification": "Familie",
        "website": "https://www.winklmoosalm.de",
        "latitude": 47.6667,
        "longitude": 12.5167
    },
    {
        "id": "steinplatte",
        "name": "Steinplatte Waidring",
        "distance": 95,
        "piste_km": 42,
        "lifts": 14,
        "price": 63.00,
        "classification": "Sportlich",
        "website": "https://www.steinplatte.tirol",
        "latitude": 47.6316,
        "longitude": 12.5621
    },
    {
        "id": "ehrwald",
        "name": "Ehrwalder Almbahn",
        "distance": 90,
        "piste_km": 27,
        "lifts": 7,
        "price": 63.50,
        "classification": "Familie",
        "website": "https://www.almbahn.at",
        "latitude": 47.4300,
        "longitude": 10.9400
    },
    {
        "id": "lermoos",
        "name": "Lermoos / Grubigstein",
        "distance": 95,
        "piste_km": 27,
        "lifts": 8,
        "price": 63.50,
        "classification": "Genuss",
        "website": "https://www.bergbahnen-langes.at",
        "latitude": 47.4000,
        "longitude": 10.8833
    },
    {
        "id": "tiroler-zugspitzbahn",
        "name": "Tiroler Zugspitzbahn",
        "distance": 95,
        "piste_km": 17,
        "lifts": 9,
        "price": 63.50,
        "classification": "Genuss",
        "website": "https://www.zugspitze.at",
        "latitude": 47.4266,
        "longitude": 10.9419,
        "address": "Obermoos 1, 6632 Ehrwald, Österreich"
    },
    {
        "id": "st_johann",
        "name": "St. Johann in Tirol",
        "distance": 95,
        "piste_km": 40,
        "lifts": 16,
        "price": 62.00,
        "classification": "Familie",
        "website": "https://www.kitzbueheler-alpen.com/de/stjo/aktuelles/geoeffnete-lifte.html",
        "latitude": 47.5233,
        "longitude": 12.4232
    },
    {
        "id": "ski_juwel",
        "name": "Ski Juwel Alpbachtal",
        "distance": 100,
        "piste_km": 113,
        "lifts": 45,
        "price": 68.50,
        "classification": "Großraum",
        "website": "https://www.skijuwel.com/de/winter/lifte-und-pisten",
        "latitude": 47.3815,
        "longitude": 11.9789,
        "webcam": "https://www.skijuwel.com/de/winter/webcams"
    },
    {
        "id": "kitzbuehel",
        "name": "Kitzbühel / Kirchberg",
        "distance": 100,
        "piste_km": 233,
        "lifts": 58,
        "price": 72.00,
        "classification": "Großraum",
        "website": "https://www.kitzski.at",
        "latitude": 47.4464,
        "longitude": 12.3922,
        "priceDetail": {
            "adult": 72.00,
            "youth": 54.00,
            "child": 36.00,
            "currency": "€",
            "info": "Tageskarte Hauptsaison"
        }
    },
    {
        "id": "berwang",
        "name": "Berwang",
        "distance": 110,
        "piste_km": 36,
        "lifts": 12,
        "price": 63.50,
        "classification": "Genuss",
        "website": "https://www.berwang.tirol",
        "latitude": 47.4077,
        "longitude": 10.7475
    },
    {
        "id": "seefeld",
        "name": "Seefeld / Rosshütte",
        "distance": 100,
        "piste_km": 19,
        "lifts": 10,
        "price": 61.50,
        "classification": "Familie",
        "website": "https://www.seefeld.com",
        "latitude": 47.3300,
        "longitude": 11.1877
    },
    {
        "id": "hahnenkamm",
        "name": "Hahnenkamm (Reutte)",
        "distance": 110,
        "piste_km": 16,
        "lifts": 5,
        "price": 52.00,
        "classification": "Genuss",
        "website": "https://www.bergwelt-hahnenkamm.at",
        "latitude": 47.4241,
        "longitude": 12.3652
    },
    {
        "id": "lofer",
        "name": "Lofer / Almenwelt",
        "distance": 110,
        "piste_km": 46,
        "lifts": 10,
        "price": 62.00,
        "classification": "Familie",
        "website": "https://www.skialm-lofer.com",
        "latitude": 47.5800,
        "longitude": 12.6800
    },
    {
        "id": "ofterschwang",
        "name": "Ofterschwang",
        "distance": 110,
        "piste_km": 16,
        "lifts": 7,
        "price": 54.50,
        "classification": "Sportlich",
        "website": "https://www.go-ofterschwang.de",
        "latitude": 47.5000,
        "longitude": 10.2333
    },
    {
        "id": "bolsterlang",
        "name": "Bolsterlang",
        "distance": 110,
        "piste_km": 17,
        "lifts": 5,
        "price": 54.50,
        "classification": "Genuss",
        "website": "https://www.hoernerbahn.de",
        "latitude": 47.4666,
        "longitude": 10.2333
    }
]